{
    "data":[
        {
            "id" : 1,
            "name" : "Historical Core",
            "lat" : 16.399222184994507,
            "lng" : 120.61753165693972,
            "pictures" : [
               "",
               "",
               "",
               "",
               ""
            ], 
            "description" : "Located inside Camp John Hay, the historical core was established for the people to reminisce and see the role that Camp John Hay played in the history of Baguio City and Philippines. Several structures that were constructed during the time of the Americans in the Philippines still stands and remains to be a reminder of the friendship between the Philippines and the United States of America."
        },
        {
            "id" : 2,
            "name" : "Heritage Hill and Nature Park Garden (Old Diplomat Hotel)",
            "lat" : 16.40399209758665,
            "lng" : 120.58725441124297,
            "pictures" : [
                "",
                "",
                "",
                "",
                ""
            ], 
            "description" : "Lorem Ipsum"
        },
        {
            "id" : 3,
            "name" : "Bell House",
            "lat" : 16.399331793443256,
            "lng" : 120.61905615726636,
            "pictures" : [
                "",
                "",
                "",
                "",
                ""
            ], 
            "description" : "Lorem Ipsum"
        },
        {
            "id" : 4,
            "name" : "Laperal White House",
            "lat" : 16.411241168566324,
            "lng" : 120.6054291284311,
            "pictures" : [
                "",
                "",
                "",
                "",
                ""
            ], 
            "description" : "Lorem Ipsum"
        },
        {
            "id" : 5,
            "name" : "Cemetery Of Negativism",
            "lat" : 16.399620369530364,
            "lng" : 120.61764716891348,
            "pictures" : [
                "",
                "",
                "",
                "",
                ""
            ], 
            "description" : "Lorem Ipsum"
        },
        {
            "id" : 6,
            "name" : "Emilio F. Aguinaldo Museum",
            "lat" : 16.412171236255755,
            "lng" : 120.60080932619908,
            "pictures" : [
                "",
                "",
                "",
                "",
                ""
            ], 
            "description" : "Lorem Ipsum"
        },
        {
            "id" : 7,
            "name" : "Mines View Observation Deck",
            "lat" : 16.41957109790786,
            "lng" : 120.62789092591491,
            "pictures" : [
                "",
                "",
                "",
                "",
                ""
            ], 
            "description" : "Lorem Ipsum"
        },
        {
            "id" : 8,
            "name" : "Our Lady of Lourdes Grotto",
            "lat" : 16.40959296656367,
            "lng" : 120.58057046492034,
            "pictures" : [
                "",
                "",
                "",
                "",
                ""
            ], 
            "description" : "Lorem Ipsum"
        },
        {
            "id" : 9,
            "name" : "Tam-awan Village",
            "lat" : 16.42965008040838,
            "lng" : 120.57638515719748,
            "pictures" : [
                "",
                "",
                "",
                "",
                ""
            ], 
            "description" : "Lorem Ipsum"
        },
        {
            "id" : 10,
            "name" : "History trail",
            "lat" : 16.398384623789145,
            "lng" : 120.61885077978056,
            "pictures" : [
                "",
                "",
                "",
                "",
                ""
            ], 
            "description" : "Lorem Ipsum"
        },
        {
            "id" : 11,
            "name" : "Museo Kordilyera",
            "lat" : 16.405751328863772,
            "lng" : 120.59769194372842,
            "pictures" : [
                "",
                "",
                "",
                "",
                ""
            ], 
            "description" : "Lorem Ipsum"
        },
        {
            "id" : 12,
            "name" : "Burnham Park",
            "lat" : 16.412378218856116,
            "lng" : 120.59296956596052,
            "pictures" : [
                "1",
                "2",
                "3",
                "4",
                "5"
            ],
            "description" : "Burnham Park is one of the notable urban parks in the Philippines. It is situated at the heart of Baguio City in the province of Benguet. Burnham Park has a size of 33 hectares or 330000 square meters. Its main feature is the alluring Burnham Lake which is a centennial-old artificial lake that has an average depth of 10 feet or 3 meters. In addition, Burnham Park is showcasing diverse flower beds, hollyhocks, daisies, marigolds, and roses across the garden which is very attractive to all visitors. Burnham Park comprises 12 sections. First is Burnham Lake, second is the children’s playground, third is Sunshine Park, fourth is the Rose Garden, the fifth is the Japanese Peace Tower, sixth is the pine trees of the world, seventh is the Picnic Grove where tourists can have an enjoyable picnics, eighth is the Melvin Jones Grandstand where major events take place, ninth is the Orchidarium, the tenth is the Igorot Garden where locals can play chess, the eleventh is the Athletic Bowl which is track and field sporting amenity and the twelve and the last is the skating rink."
        },
        {
            "id" : 13,
            "name" : "Lion’s Head",
            "lat" : 16.36751753864695,
            "lng" : 120.60600944686503,
            "pictures" : [
                "",
                "",
                "",
                "",
                ""
            ], 
            "description" : "Lorem Ipsum"
        },
        {
            "id" : 14,
            "name" : "Bell Amphitheater",
            "lat" : 16.398790790572257,
            "lng" : 120.6177925954449,
            "pictures" : [
                "",
                "",
                "",
                "",
                ""
            ], 
            "description" : "Lorem Ipsum"
        },
        {
            "id" : 15,
            "name" : "Baguio Museum",
            "lat" : 16.407039781729914,
            "lng" : 120.59843781687438,
            "pictures" : [
                "",
                "",
                "",
                "",
                ""
            ], 
            "description" : "Lorem Ipsum"
        }
    ]
}